$GPRMC,132733.674,V,3754.930,N,07402.496,W,37.7,0.82,181118,,E*4D
$GPGGA,132734.674,3754.930,N,07402.496,W,0,00,,,M,,M,,*51
$GPGLL,3754.930,N,07402.496,W,132735.674,V*30
$GPRMC,132736.674,V,3754.931,N,07402.494,W,49.1,0.71,181118,,E*48
$GPGGA,132737.674,3754.931,N,07402.494,W,0,00,,,M,,M,,*51
$GPGLL,3754.931,N,07402.494,W,132738.674,V*3E
$GPRMC,132739.674,V,3754.932,N,07402.492,W,9.3,0.71,181118,,E*74
$GPGGA,132740.674,3754.932,N,07402.492,W,0,00,,,M,,M,,*54
$GPGLL,3754.932,N,07402.492,W,132741.674,V*35
This is a bad line
$GPRMC,132742.674,V,3754.933,N,07402.491,W,90.0,0.60,181118,,E*49
$GPGGA,132743.674,3754.933,N,07402.491,W,0,00,,,M,,M,,*55
$GPGLL,3754.933,N,07402.491,W,132744.674,V*32
$GPRMC,132745.674,V,3754.934,N,07402.489,W,47.7,0.69,181118,,E*44
$GPGGA,132746.674,3754.934,N,07402.489,W,0,00,,,M,,M,,*5E
$GPGLL,3754.934,N,07402.489,W,132747.674,V*3F
$GPRMC,132748.674,V,3754.934,N,07402.488,W,80.9,0.77,181118,,E*42
$GPGGA,132749.674,3754.934,N,07402.488,W,0,00,,,M,,M,,*50
$GPGLL,3754.934,N,07402.488,W,132750.674,V*38
$GPRMC,132751.674,V,3754.934,N,07402.486,W,91.7,1.09,181118,,E*42
$GPGGA,132752.674,3754.934,N,07402.486,W,0,00,,,M,,M,,*54
$GPGLL,3754.934,N,07402.486,W,132753.674,V*35
$GPRMC,132754.674,V,3754.934,N,07402.484,W,95.3,1.03,181118,,E*4F
$GPGGA,132755.674,3754.934,N,07402.484,W,0,00,,,M,,M,,*51
$GPGLL,3754.934,N,07402.484,W,132756.674,V*32
$GPRMC,132757.674,V,3754.934,N,07402.482,W,52.1,1.10,181118,,E*41
$GPGGA,132758.674,3754.934,N,07402.482,W,0,00,,,M,,M,,*5A
$GPGLL,3754.934,N,07402.482,W,132759.674,V*3B
$GPRMC,132800.674,V,3754.934,N,07402.480,W,76.8,1.02,181118,,E*42
$GPGGA,132801.674,3754.934,N,07402.480,W,0,00,,,M,,M,,*5B
$GPGLL,3754.934,N,07402.480,W,132802.674,V*38
$GPRMC,132803.674,V,3754.934,N,07402.479,W,8.5,0.96,181118,,E*7F
$GPGGA,132804.674,3754.934,N,07402.479,W,0,00,,,M,,M,,*58
$GPGLL,3754.934,N,07402.479,W,132805.674,V*39
This is another bad line
$GPRMC,132806.674,V,3754.934,N,07402.477,W,22.3,0.89,181118,,E*44
$GPGGA,132807.674,3754.934,N,07402.477,W,0,00,,,M,,M,,*55
$GPGLL,3754.934,N,07402.477,W,132808.674,V*3A
$GPRMC,132809.674,V,3754.934,N,07402.475,W,14.5,0.95,181118,,E*47
$GPGGA,132810.674,3754.934,N,07402.475,W,0,00,,,M,,M,,*51
$GPGLL,3754.934,N,07402.475,W,132811.674,V*30
$GPRMC,132812.674,V,3754.935,N,07402.473,W,95.6,0.86,181118,,E*42
$GPGGA,132813.674,3754.935,N,07402.473,W,0,00,,,M,,M,,*55
$GPGLL,3754.935,N,07402.473,W,132814.674,V*32
$GPRMC,132815.674,V,3754.935,N,07402.471,W,63.3,0.96,181118,,E*4A
$GPGGA,132816.674,3754.935,N,07402.471,W,0,00,,,M,,M,,*52
$GPGLL,3754.935,N,07402.471,W,132817.674,V*33
$GPRMC,132818.674,V,3754.935,N,07402.470,W,97.3,0.88,181118,,E*42
$GPGGA,132819.674,3754.935,N,07402.470,W,0,00,,,M,,M,,*5C
$GPGLL,3754.935,N,07402.470,W,132820.674,V*36
$GPRMC,132821.674,V,3754.935,N,07402.468,W,48.0,0.85,181118,,E*4D
$GPGGA,132822.674,3754.935,N,07402.468,W,0,00,,,M,,M,,*5D
$GPGLL,3754.935,N,07402.468,W,132823.674,V*3C
$GPRMC,132824.674,V,3754.936,N,07402.466,W,44.1,0.91,181118,,E*4D
$GPGGA,132825.674,3754.936,N,07402.466,W,0,00,,,M,,M,,*57
$GPGLL,3754.936,N,07402.466,W,132826.674,V*34
$GPRMC,132827.674,V,3754.936,N,07402.464,W,40.2,0.86,181118,,E*4D
$GPGGA,132828.674,3754.936,N,07402.464,W,0,00,,,M,,M,,*58
$GPGLL,3754.936,N,07402.464,W,132829.674,V*39
$GPRMC,132830.674,V,3754.936,N,07402.463,W,57.5,0.96,181118,,E*4C
$GPGGA,132831.674,3754.936,N,07402.463,W,0,00,,,M,,M,,*57
$GPGLL,3754.936,N,07402.463,W,132832.674,V*34
$GPRMC,132833.674,V,3754.936,N,07402.461,W,23.8,1.07,181118,,E*4A
$GPGGA,132834.674,3754.936,N,07402.461,W,0,00,,,M,,M,,*50
$GPGLL,3754.936,N,07402.461,W,132835.674,V*31
$GPRMC,132836.674,V,3754.936,N,07402.459,W,54.5,1.03,181118,,E*4D
$GPGGA,132837.674,3754.936,N,07402.459,W,0,00,,,M,,M,,*58
$GPGLL,3754.936,N,07402.459,W,132838.674,V*37
$GPRMC,132839.674,V,3754.936,N,07402.457,W,60.7,1.00,181118,,E*4A
$GPGGA,132840.674,3754.936,N,07402.457,W,0,00,,,M,,M,,*56
$GPGLL,3754.936,N,07402.457,W,132841.674,V*37
$GPRMC,132842.674,V,3754.936,N,07402.455,W,31.4,0.90,181118,,E*4B
$GPGGA,132843.674,3754.936,N,07402.455,W,0,00,,,M,,M,,*57
$GPGLL,3754.936,N,07402.455,W,132844.674,V*30
$GPRMC,132845.674,V,3754.937,N,07402.454,W,79.4,0.90,181118,,E*40
$GPGGA,132846.674,3754.937,N,07402.454,W,0,00,,,M,,M,,*52
$GPGLL,3754.937,N,07402.454,W,132847.674,V*33
$GPRMC,132848.674,V,3754.937,N,07402.452,W,0.4,0.89,181118,,E*7D
$GPGGA,132849.674,3754.937,N,07402.452,W,0,00,,,M,,M,,*5B
$GPGLL,3754.937,N,07402.452,W,132850.674,V*33
$GPRMC,132851.674,V,3754.937,N,07402.450,W,29.1,0.90,181118,,E*41
$GPGGA,132852.674,3754.937,N,07402.450,W,0,00,,,M,,M,,*53
$GPGLL,3754.937,N,07402.450,W,132853.674,V*32
$GPRMC,132854.674,V,3754.937,N,07402.448,W,94.6,0.95,181118,,E*49
$GPGGA,132855.674,3754.937,N,07402.448,W,0,00,,,M,,M,,*5D
$GPGLL,3754.937,N,07402.448,W,132856.674,V*3E
$GPRMC,132857.674,V,3754.937,N,07402.447,W,87.9,0.95,181118,,E*48
$GPGGA,132858.674,3754.937,N,07402.447,W,0,00,,,M,,M,,*5F
$GPGLL,3754.937,N,07402.447,W,132859.674,V*3E
$GPRMC,132900.674,V,3754.938,N,07402.445,W,35.9,0.87,181118,,E*4C
$GPGGA,132901.674,3754.938,N,07402.445,W,0,00,,,M,,M,,*5F
$GPGLL,3754.938,N,07402.445,W,132902.674,V*3C
$GPRMC,132903.674,V,3754.938,N,07402.443,W,71.4,0.80,181118,,E*43
$GPGGA,132904.674,3754.938,N,07402.443,W,0,00,,,M,,M,,*5C
$GPGLL,3754.938,N,07402.443,W,132905.674,V*3D
$GPRMC,132906.674,V,3754.939,N,07402.441,W,21.2,0.69,181118,,E*41
$GPGGA,132907.674,3754.939,N,07402.441,W,0,00,,,M,,M,,*5C
$GPGLL,3754.939,N,07402.441,W,132908.674,V*33
$GPRMC,132909.674,V,3754.940,N,07402.440,W,55.1,0.68,181118,,E*40
$GPGGA,132910.674,3754.940,N,07402.440,W,0,00,,,M,,M,,*55
$GPGLL,3754.940,N,07402.440,W,132911.674,V*34
$GPRMC,132912.674,V,3754.941,N,07402.438,W,84.8,0.66,181118,,E*4F
$GPGGA,132913.674,3754.941,N,07402.438,W,0,00,,,M,,M,,*58
$GPGLL,3754.941,N,07402.438,W,132914.674,V*3F
$GPRMC,132915.674,V,3754.942,N,07402.437,W,18.0,0.67,181118,,E*48
$GPGGA,132916.674,3754.942,N,07402.437,W,0,00,,,M,,M,,*51
$GPGLL,3754.942,N,07402.437,W,132917.674,V*30
$GPRMC,132918.674,V,3754.943,N,07402.435,W,83.7,0.63,181118,,E*47
$GPGGA,132919.674,3754.943,N,07402.435,W,0,00,,,M,,M,,*5D
$GPGLL,3754.943,N,07402.435,W,132920.674,V*37
$GPRMC,132921.674,V,3754.944,N,07402.434,W,63.2,0.61,181118,,E*42
$GPGGA,132922.674,3754.944,N,07402.434,W,0,00,,,M,,M,,*53
$GPGLL,3754.944,N,07402.434,W,132923.674,V*32
$GPRMC,132924.674,V,3754.945,N,07402.432,W,43.7,0.61,181118,,E*47
$GPGGA,132925.674,3754.945,N,07402.432,W,0,00,,,M,,M,,*53
$GPGLL,3754.945,N,07402.432,W,132926.674,V*30
$GPRMC,132927.674,V,3754.945,N,07402.431,W,13.2,1.04,181118,,E*45
$GPGGA,132928.674,3754.945,N,07402.431,W,0,00,,,M,,M,,*5D
$GPGLL,3754.945,N,07402.431,W,132929.674,V*3C
$GPRMC,132930.674,V,3754.945,N,07402.429,W,17.7,0.98,181118,,E*4F
$GPGGA,132931.674,3754.945,N,07402.429,W,0,00,,,M,,M,,*5C
$GPGLL,3754.945,N,07402.429,W,132932.674,V*3F
$GPRMC,132933.674,V,3754.945,N,07402.427,W,72.7,0.96,181118,,E*4F
$GPGGA,132934.674,3754.945,N,07402.427,W,0,00,,,M,,M,,*57
$GPGLL,3754.945,N,07402.427,W,132935.674,V*36
$GPRMC,132936.674,V,3754.945,N,07402.425,W,39.3,0.95,181118,,E*40
$GPGGA,132937.674,3754.945,N,07402.425,W,0,00,,,M,,M,,*56
$GPGLL,3754.945,N,07402.425,W,132938.674,V*39
$GPRMC,132939.674,V,3754.945,N,07402.423,W,73.8,0.98,181118,,E*41
$GPGGA,132940.674,3754.945,N,07402.423,W,0,00,,,M,,M,,*50
$GPGLL,3754.945,N,07402.423,W,132941.674,V*31
$GPRMC,132942.674,V,3754.945,N,07402.422,W,99.3,0.93,181118,,E*48
$GPGGA,132943.674,3754.945,N,07402.422,W,0,00,,,M,,M,,*52
$GPGLL,3754.945,N,07402.422,W,132944.674,V*35
$GPRMC,132945.674,V,3754.946,N,07402.420,W,82.4,0.82,181118,,E*43
$GPGGA,132946.674,3754.946,N,07402.420,W,0,00,,,M,,M,,*56
$GPGLL,3754.946,N,07402.420,W,132947.674,V*37
$GPRMC,132948.674,V,3754.946,N,07402.418,W,34.2,0.87,181118,,E*4B
$GPGGA,132949.674,3754.946,N,07402.418,W,0,00,,,M,,M,,*52
$GPGLL,3754.946,N,07402.418,W,132950.674,V*3A
$GPRMC,132951.674,V,3754.947,N,07402.416,W,44.9,0.83,181118,,E*44
$GPGGA,132952.674,3754.947,N,07402.416,W,0,00,,,M,,M,,*57
$GPGLL,3754.947,N,07402.416,W,132953.674,V*36
$GPRMC,132954.674,V,3754.947,N,07402.415,W,64.8,0.82,181118,,E*40
$GPGGA,132955.674,3754.947,N,07402.415,W,0,00,,,M,,M,,*53
$GPGLL,3754.947,N,07402.415,W,132956.674,V*30
$GPRMC,132957.674,V,3754.948,N,07402.413,W,56.5,0.75,181118,,E*4E
$GPGGA,132958.674,3754.948,N,07402.413,W,0,00,,,M,,M,,*57
$GPGLL,3754.948,N,07402.413,W,132959.674,V*36
$GPRMC,133000.674,V,3754.948,N,07402.411,W,30.4,0.84,181118,,E*49
$GPGGA,133001.674,3754.948,N,07402.411,W,0,00,,,M,,M,,*51
$GPGLL,3754.948,N,07402.411,W,133002.674,V*32
$GPRMC,133003.674,V,3754.949,N,07402.409,W,54.7,0.87,181118,,E*40
$GPGGA,133004.674,3754.949,N,07402.409,W,0,00,,,M,,M,,*5C
$GPGLL,3754.949,N,07402.409,W,133005.674,V*3D
$GPRMC,133006.674,V,3754.948,N,07402.408,W,58.8,1.22,181118,,E*48
$GPGGA,133007.674,3754.948,N,07402.408,W,0,00,,,M,,M,,*5F
$GPGLL,3754.948,N,07402.408,W,133008.674,V*30
$GPRMC,133009.674,V,3754.948,N,07402.406,W,34.5,1.15,181118,,E*4A
$GPGGA,133010.674,3754.948,N,07402.406,W,0,00,,,M,,M,,*57
$GPGLL,3754.948,N,07402.406,W,133011.674,V*36
$GPRMC,133012.674,V,3754.947,N,07402.404,W,0.2,1.22,181118,,E*79
$GPGGA,133013.674,3754.947,N,07402.404,W,0,00,,,M,,M,,*59
$GPGLL,3754.947,N,07402.404,W,133014.674,V*3E
$GPRMC,133015.674,V,3754.947,N,07402.403,W,36.8,1.17,181118,,E*40
$GPGGA,133016.674,3754.947,N,07402.403,W,0,00,,,M,,M,,*5B
$GPGLL,3754.947,N,07402.403,W,133017.674,V*3A
$GPRMC,133018.674,V,3754.946,N,07402.401,W,73.3,1.16,181118,,E*45
$GPGGA,133019.674,3754.946,N,07402.401,W,0,00,,,M,,M,,*57
$GPGLL,3754.946,N,07402.401,W,133020.674,V*3D
$GPRMC,133021.674,V,3754.945,N,07402.399,W,63.6,1.25,181118,,E*4E
$GPGGA,133022.674,3754.945,N,07402.399,W,0,00,,,M,,M,,*5A
$GPGLL,3754.945,N,07402.399,W,133023.674,V*3B
$GPRMC,133024.674,V,3754.945,N,07402.398,W,38.3,1.34,181118,,E*41
$GPGGA,133025.674,3754.945,N,07402.398,W,0,00,,,M,,M,,*5C
$GPGLL,3754.945,N,07402.398,W,133026.674,V*3F
$GPRMC,133027.674,V,3754.943,N,07402.396,W,85.7,1.38,181118,,E*44
$GPGGA,133028.674,3754.943,N,07402.396,W,0,00,,,M,,M,,*59
$GPGLL,3754.943,N,07402.396,W,133029.674,V*38
$GPRMC,133030.674,V,3754.943,N,07402.395,W,80.2,1.36,181118,,E*4F
$GPGGA,133031.674,3754.943,N,07402.395,W,0,00,,,M,,M,,*52
$GPGLL,3754.943,N,07402.395,W,133032.674,V*31
$GPRMC,133033.674,V,3754.942,N,07402.393,W,53.0,1.28,181118,,E*48
$GPGGA,133034.674,3754.942,N,07402.393,W,0,00,,,M,,M,,*50
$GPGLL,3754.942,N,07402.393,W,133035.674,V*31
$GPRMC,133036.674,V,3754.941,N,07402.391,W,75.5,1.25,181118,,E*40
$GPGGA,133037.674,3754.941,N,07402.391,W,0,00,,,M,,M,,*52
$GPGLL,3754.941,N,07402.391,W,133038.674,V*3D
$GPRMC,133039.674,V,3754.940,N,07402.390,W,74.9,1.29,181118,,E*4E
$GPGGA,133040.674,3754.940,N,07402.390,W,0,00,,,M,,M,,*52
$GPGLL,3754.940,N,07402.390,W,133041.674,V*33
$GPRMC,133042.674,V,3754.939,N,07402.388,W,56.9,1.33,181118,,E*4E
$GPGGA,133043.674,3754.939,N,07402.388,W,0,00,,,M,,M,,*56
$GPGLL,3754.939,N,07402.388,W,133044.674,V*31
$GPRMC,133045.674,V,3754.938,N,07402.387,W,72.3,1.42,181118,,E*4D
$GPGGA,133046.674,3754.938,N,07402.387,W,0,00,,,M,,M,,*5D
$GPGLL,3754.938,N,07402.387,W,133047.674,V*3C
$GPRMC,133048.674,V,3754.937,N,07402.385,W,76.5,1.32,181118,,E*48
$GPGGA,133049.674,3754.937,N,07402.385,W,0,00,,,M,,M,,*5F
$GPGLL,3754.937,N,07402.385,W,133050.674,V*37
$GPRMC,133051.674,V,3754.937,N,07402.383,W,40.1,1.24,181118,,E*40
$GPGGA,133052.674,3754.937,N,07402.383,W,0,00,,,M,,M,,*53
$GPGLL,3754.937,N,07402.383,W,133053.674,V*32
$GPRMC,133054.674,V,3754.936,N,07402.382,W,2.1,1.28,181118,,E*7F
$GPGGA,133055.674,3754.936,N,07402.382,W,0,00,,,M,,M,,*54
$GPGLL,3754.936,N,07402.382,W,133056.674,V*37
$GPRMC,133057.674,V,3754.935,N,07402.380,W,16.0,1.38,181118,,E*48
$GPGGA,133058.674,3754.935,N,07402.380,W,0,00,,,M,,M,,*58
$GPGLL,3754.935,N,07402.380,W,133059.674,V*39
$GPRMC,133100.674,V,3754.934,N,07402.379,W,4.0,1.44,181118,,E*74
$GPGGA,133101.674,3754.934,N,07402.379,W,0,00,,,M,,M,,*52
$GPGLL,3754.934,N,07402.379,W,133102.674,V*31
$GPRMC,133103.674,V,3754.933,N,07402.378,W,5.6,1.42,181118,,E*70
$GPGGA,133104.674,3754.933,N,07402.378,W,0,00,,,M,,M,,*51
$GPGLL,3754.933,N,07402.378,W,133105.674,V*30
$GPRMC,133106.674,V,3754.932,N,07402.376,W,14.2,1.32,181118,,E*49
$GPGGA,133107.674,3754.932,N,07402.376,W,0,00,,,M,,M,,*5D
$GPGLL,3754.932,N,07402.376,W,133108.674,V*32
$GPRMC,133109.674,V,3754.931,N,07402.374,W,11.4,1.32,181118,,E*44
$GPGGA,133110.674,3754.931,N,07402.374,W,0,00,,,M,,M,,*5A
$GPGLL,3754.931,N,07402.374,W,133111.674,V*3B
$GPRMC,133112.674,V,3754.930,N,07402.373,W,34.7,1.36,181118,,E*48
$GPGGA,133113.674,3754.930,N,07402.373,W,0,00,,,M,,M,,*5F
$GPGLL,3754.930,N,07402.373,W,133114.674,V*38
$GPRMC,133115.674,V,3754.929,N,07402.371,W,44.4,1.42,181118,,E*42
$GPGGA,133116.674,3754.929,N,07402.371,W,0,00,,,M,,M,,*50
$GPGLL,3754.929,N,07402.371,W,133117.674,V*31
$GPRMC,133118.674,V,3754.928,N,07402.370,W,43.0,1.31,181118,,E*48
$GPGGA,133119.674,3754.928,N,07402.370,W,0,00,,,M,,M,,*5F
$GPGLL,3754.928,N,07402.370,W,133120.674,V*35
$GPRMC,133121.674,V,3754.927,N,07402.368,W,98.3,1.26,181118,,E*47
$GPGGA,133122.674,3754.927,N,07402.368,W,0,00,,,M,,M,,*51
$GPGLL,3754.927,N,07402.368,W,133123.674,V*30
$GPRMC,133124.674,V,3754.927,N,07402.366,W,67.3,1.22,181118,,E*48
$GPGGA,133125.674,3754.927,N,07402.366,W,0,00,,,M,,M,,*58
$GPGLL,3754.927,N,07402.366,W,133126.674,V*3B
$GPRMC,133127.674,V,3754.926,N,07402.365,W,67.9,1.25,181118,,E*44
$GPGGA,133128.674,3754.926,N,07402.365,W,0,00,,,M,,M,,*57
$GPGLL,3754.926,N,07402.365,W,133129.674,V*36
$GPRMC,133130.674,V,3754.926,N,07402.363,W,16.3,1.16,181118,,E*48
$GPGGA,133131.674,3754.926,N,07402.363,W,0,00,,,M,,M,,*59
$GPGLL,3754.926,N,07402.363,W,133132.674,V*3A
$GPRMC,133133.674,V,3754.925,N,07402.361,W,41.4,1.18,181118,,E*41
$GPGGA,133134.674,3754.925,N,07402.361,W,0,00,,,M,,M,,*5D
$GPGLL,3754.925,N,07402.361,W,133135.674,V*3C
$GPRMC,133136.674,V,3754.924,N,07402.360,W,21.5,1.28,181118,,E*40
$GPGGA,133137.674,3754.924,N,07402.360,W,0,00,,,M,,M,,*5E
$GPGLL,3754.924,N,07402.360,W,133138.674,V*31
$GPRMC,133139.674,V,3754.924,N,07402.358,W,60.9,1.32,181118,,E*46
$GPGGA,133140.674,3754.924,N,07402.358,W,0,00,,,M,,M,,*55
$GPGLL,3754.924,N,07402.358,W,133141.674,V*34
$GPRMC,133142.674,V,3754.923,N,07402.357,W,93.7,1.29,181118,,E*4A
$GPGGA,133143.674,3754.923,N,07402.357,W,0,00,,,M,,M,,*5E
$GPGLL,3754.923,N,07402.357,W,133144.674,V*39
$GPRMC,133145.674,V,3754.922,N,07402.355,W,53.1,1.38,181118,,E*44
$GPGGA,133146.674,3754.922,N,07402.355,W,0,00,,,M,,M,,*58
$GPGLL,3754.922,N,07402.355,W,133147.674,V*39
$GPRMC,133148.674,V,3754.920,N,07402.354,W,17.3,1.47,181118,,E*40
$GPGGA,133149.674,3754.920,N,07402.354,W,0,00,,,M,,M,,*54
$GPGLL,3754.920,N,07402.354,W,133150.674,V*3C
$GPRMC,133151.674,V,3754.919,N,07402.352,W,81.0,1.50,181118,,E*4E
$GPGGA,133152.674,3754.919,N,07402.352,W,0,00,,,M,,M,,*52
$GPGLL,3754.919,N,07402.352,W,133153.674,V*33
$GPRMC,133154.674,V,3754.918,N,07402.351,W,34.0,1.55,181118,,E*42
$GPGGA,133155.674,3754.918,N,07402.351,W,0,00,,,M,,M,,*57
$GPGLL,3754.918,N,07402.351,W,133156.674,V*34
$GPRMC,133157.674,V,3754.917,N,07402.350,W,4.4,1.53,181118,,E*7E
$GPGGA,133158.674,3754.917,N,07402.350,W,0,00,,,M,,M,,*54
$GPGLL,3754.917,N,07402.350,W,133159.674,V*35
$GPRMC,133200.674,V,3754.915,N,07402.349,W,46.9,1.44,181118,,E*48
$GPGGA,133201.674,3754.915,N,07402.349,W,0,00,,,M,,M,,*51
$GPGLL,3754.915,N,07402.349,W,133202.674,V*32
$GPRMC,133203.674,V,3754.914,N,07402.347,W,25.8,1.37,181118,,E*44
$GPGGA,133204.674,3754.914,N,07402.347,W,0,00,,,M,,M,,*5B
$GPGLL,3754.914,N,07402.347,W,133205.674,V*3A
$GPRMC,133206.674,V,3754.914,N,07402.346,W,44.8,1.29,181118,,E*48
$GPGGA,133207.674,3754.914,N,07402.346,W,0,00,,,M,,M,,*59
$GPGLL,3754.914,N,07402.346,W,133208.674,V*36
$GPRMC,133209.674,V,3754.913,N,07402.344,W,78.8,1.23,181118,,E*47
$GPGGA,133210.674,3754.913,N,07402.344,W,0,00,,,M,,M,,*5A
$GPGLL,3754.913,N,07402.344,W,133211.674,V*3B
$GPRMC,133212.674,V,3754.912,N,07402.342,W,84.9,1.19,181118,,E*41
$GPGGA,133213.674,3754.912,N,07402.342,W,0,00,,,M,,M,,*5E
$GPGLL,3754.912,N,07402.342,W,133214.674,V*39
$GPRMC,133215.674,V,3754.912,N,07402.340,W,5.4,1.23,181118,,E*79
$GPGGA,133216.674,3754.912,N,07402.340,W,0,00,,,M,,M,,*59
$GPGLL,3754.912,N,07402.340,W,133217.674,V*38
$GPRMC,133218.674,V,3754.911,N,07402.339,W,43.0,1.34,181118,,E*49
$GPGGA,133219.674,3754.911,N,07402.339,W,0,00,,,M,,M,,*5B
$GPGLL,3754.911,N,07402.339,W,133220.674,V*31
$GPRMC,133221.674,V,3754.910,N,07402.337,W,7.9,1.16,181118,,E*75
$GPGGA,133222.674,3754.910,N,07402.337,W,0,00,,,M,,M,,*5C
$GPGLL,3754.910,N,07402.337,W,133223.674,V*3D
$GPRMC,133224.674,V,3754.910,N,07402.335,W,65.5,1.22,181118,,E*4D
$GPGGA,133225.674,3754.910,N,07402.335,W,0,00,,,M,,M,,*59
$GPGLL,3754.910,N,07402.335,W,133226.674,V*3A
$GPRMC,133227.674,V,3754.909,N,07402.334,W,64.9,1.28,181118,,E*40
$GPGGA,133228.674,3754.909,N,07402.334,W,0,00,,,M,,M,,*5D
$GPGLL,3754.909,N,07402.334,W,133229.674,V*3C
$GPRMC,133230.674,V,3754.909,N,07402.332,W,96.6,1.19,181118,,E*40
$GPGGA,133231.674,3754.909,N,07402.332,W,0,00,,,M,,M,,*53
$GPGLL,3754.909,N,07402.332,W,133232.674,V*30
